[
  {
    "CompanyName": "A & A",
    "EmployeeCount": 13,
    "Locations": [
      {
        "_id": "5772ab9546e16b0a00f18c0d",
        "address": {
          "complete": "5141 GA-23, Waynesboro, GA 30830, USA",
          "city": "Waynesboro",
          "streetNumber": "5141",
          "streetName": "Georgia 23",
          "state": "GA",
          "country": "US",
          "zip": "30830"
        },
        "location": {
          "lat": 33.114432,
          "lon": -81.854198
        },
        "name": "Waynesboro",
        "companyId": "5772ab9546e16b0a00f18c0c",
        "phone": "",
        "fax": "",
        "employeesCount": 11
      },
      {
        "_id": "65fa0c1d8c4ae1d7f6175f97",
        "address": {
          "city": "North Hollywood",
          "complete": "North Hollywood, 91605, United States of America",
          "country": "US",
          "state": "",
          "streetName": "",
          "streetNumber": "",
          "suite": "",
          "zip": "91605"
        },
        "location": {
          "lat": 34.208195,
          "lon": -118.3987842
        },
        "name": "North Hollywood",
        "companyId": "5772ab9546e16b0a00f18c0c",
        "phone": "",
        "fax": "",
        "employeesCount": 2
      }
    ],
    "phone": "",
    "Fax": ""
  },
  {
    "CompanyName": "A & A",
    "EmployeeCount": 12,
    "Locations": [
      {
        "_id": "6165c1b802453600dc5d353c",
        "address": {
          "complete": "965 Midland Ave, Yonkers, NY 10704, USA",
          "state": "NY",
          "city": "Yonkers",
          "country": "US"
        },
        "location": {
          "lat": 40.9357713,
          "lon": -73.8578491
        },
        "name": "Yonkers",
        "companyId": "6165c1b802453600dc5d353b",
        "phone": "",
        "fax": "",
        "employeesCount": 4
      },
      {
        "_id": "61b3894363985d00be1a92c3",
        "address": {
          "streetNumber": "130",
          "streetName": "North Hillcrest Boulevard",
          "city": "Inglewood",
          "state": "CA",
          "country": "US",
          "zip": "90301",
          "complete": "130 North Hillcrest Boulevard, Inglewood, CA 90301, United States of America"
        },
        "location": {
          "lat": 33.9638355,
          "lon": -118.3484105
        },
        "name": "Inglewood",
        "companyId": "6165c1b802453600dc5d353b",
        "phone": "",
        "fax": "",
        "employeesCount": 1
      },
      {
        "_id": "6202d3e7d5d1c600aa0759d2",
        "address": {
          "streetNumber": "965",
          "streetName": "Midland Avenue",
          "city": "Yonkers",
          "state": "NY",
          "country": "US",
          "zip": "10704",
          "complete": "965 Midland Avenue, Yonkers, NY 10704, United States of America"
        },
        "location": {
          "lat": 40.9357713,
          "lon": -73.8578491
        },
        "name": "Yonkers",
        "companyId": "6165c1b802453600dc5d353b",
        "phone": "",
        "fax": "",
        "employeesCount": 1
      },
      {
        "_id": "622a36ed854b3f00b71189bc",
        "address": {
          "suite": "Suite 1250",
          "streetNumber": "1",
          "streetName": "North LaSalle Street",
          "city": "Chicago",
          "state": "IL",
          "country": "US",
          "zip": "60602",
          "complete": "1 North LaSalle Street, Suite 1250, Chicago, IL 60602, United States of America"
        },
        "location": {
          "lat": 41.8823104,
          "lon": -87.63203779999999
        },
        "name": "Chicago",
        "companyId": "6165c1b802453600dc5d353b",
        "phone": "",
        "fax": "",
        "employeesCount": 5
      },
      {
        "_id": "62decd5e8dd46b00806ea83e",
        "address": {
          "city": "Seattle",
          "state": "WA",
          "country": "US",
          "complete": "Seattle, WA, United States of America"
        },
        "location": {
          "lat": 47.6062095,
          "lon": -122.3320708
        },
        "name": "Seattle",
        "companyId": "6165c1b802453600dc5d353b",
        "phone": "",
        "fax": "",
        "employeesCount": 1
      },
      {
        "_id": "6500658a66a46e003b7a153a",
        "address": {
          "complete": "Antarctica",
          "country": "AQ"
        },
        "location": {
          "lat": -64.6849636,
          "lon": -62.6250798
        },
        "name": "Main Office",
        "companyId": "6165c1b802453600dc5d353b",
        "phone": "",
        "fax": "",
        "employeesCount": 0
      }
    ],
    "phone": "",
    "Fax": ""
  },
  {
    "CompanyName": "A&a",
    "EmployeeCount": 0,
    "Locations": [
      {
        "_id": "6488e6baf9bd340035a7aa89",
        "address": {
          "streetNumber": "11516",
          "streetName": "Em En El Grove Road",
          "city": "Leesburg",
          "state": "FL",
          "country": "US",
          "zip": "34788",
          "complete": "11516 Em En El Grove Road, Leesburg, FL 34788, United States of America"
        },
        "location": {
          "lat": 28.949469,
          "lon": -81.7650993
        },
        "name": "Leesburg",
        "companyId": "6488e6baf9bd340035a7aa86",
        "phone": "",
        "fax": "",
        "employeesCount": 0
      }
    ],
    "phone": "",
    "Fax": ""
  },
  {
    "CompanyName": "A&a",
    "EmployeeCount": 0,
    "Locations": [
      {
        "_id": "6488e6bc7f8bf60035f223ff",
        "address": {
          "streetNumber": "11516",
          "streetName": "Em En El Grove Road",
          "city": "Leesburg",
          "state": "FL",
          "country": "US",
          "zip": "34788",
          "complete": "11516 Em En El Grove Road, Leesburg, FL 34788, United States of America"
        },
        "location": {
          "lat": 28.949469,
          "lon": -81.7650993
        },
        "name": "Leesburg",
        "companyId": "6488e6bb7f8bf60035f223fb",
        "phone": "",
        "fax": "",
        "employeesCount": 0
      }
    ],
    "phone": "",
    "Fax": ""
  },
  {
    "CompanyName": "A&a",
    "EmployeeCount": 1,
    "Locations": [
      {
        "_id": "6488e6bc592d91003b5d2d62",
        "address": {
          "streetNumber": "11516",
          "streetName": "Em En El Grove Road",
          "city": "Leesburg",
          "state": "FL",
          "country": "US",
          "zip": "34788",
          "complete": "11516 Em En El Grove Road, Leesburg, FL 34788, United States of America"
        },
        "location": {
          "lat": 28.949469,
          "lon": -81.7650993
        },
        "name": "Leesburg",
        "companyId": "6488e6bc592d91003b5d2d5f",
        "phone": "",
        "fax": "",
        "employeesCount": 1
      }
    ],
    "phone": "",
    "Fax": ""
  },
  {
    "CompanyName": "A A A Roofing",
    "EmployeeCount": 2,
    "Locations": [
      {
        "_id": "56fb19eede8ca70a006a83b5",
        "address": {
          "country": "US",
          "state": "FL",
          "zip": "34420",
          "city": "Belleview",
          "complete": "Belleview, FL 34420, USA"
        },
        "location": {
          "lat": 29.0534847,
          "lon": -82.0298154
        },
        "name": "Belleview",
        "companyId": "56fb19eede8ca70a006a83b4",
        "phone": "",
        "fax": "+1 352-563-0001",
        "employeesCount": 2
      }
    ],
    "phone": "",
    "Fax": "+1 352-563-0001"
  },
  {
    "CompanyName": "A A A Roofing",
    "EmployeeCount": 1,
    "Locations": [
      {
        "_id": "56f5ddfd48d0271500374d5b",
        "address": {
          "country": "US",
          "state": "FL",
          "city": "Crystal River",
          "complete": "Crystal River, FL, USA"
        },
        "location": {
          "lat": 28.902479,
          "lon": -82.59260119999999
        },
        "name": "Crystal River",
        "companyId": "56f5ddfc48d0271500374d5a",
        "phone": "",
        "fax": "+1 352-763-0001",
        "employeesCount": 1
      }
    ],
    "phone": "",
    "Fax": "+1 352-763-0001"
  },
  {
    "CompanyName": "A&A Granite & Limestone A&A Marble",
    "EmployeeCount": 2,
    "Locations": [
      {
        "_id": "5db9ac90188db20022bfe48c",
        "address": {
          "complete": "242 Hwy 352, Sunnyvale, TX 75182, USA",
          "streetNumber": "242",
          "streetName": "Highway 352",
          "city": "Sunnyvale",
          "state": "TX",
          "country": "US",
          "zip": "75182"
        },
        "location": {
          "lat": 32.7769686,
          "lon": -96.5676573
        },
        "name": "Sunnyvale",
        "companyId": "5db9ac90188db20022bfe48b",
        "phone": "",
        "fax": "+1 214-744-1474",
        "employeesCount": 2
      }
    ],
    "phone": "",
    "Fax": "+1 214-744-1474"
  },
  {
    "CompanyName": "A A A Oils, Inc.",
    "EmployeeCount": 2,
    "Locations": [
      {
        "_id": "5522199bdf102a0900215cad",
        "address": {
          "complete": "11621 Westminster Avenue, Garden Grove, CA 92843 US",
          "zip": "92843",
          "country": "US",
          "state": "CA",
          "city": "Garden Grove",
          "streetName": "Westminster Avenue",
          "streetNumber": "11621"
        },
        "location": {
          "lat": 33.7598065,
          "lon": -117.9270943
        },
        "name": "Garden Grove",
        "companyId": "5522199bdf102a0900215cac",
        "phone": "",
        "fax": "+1 714-530-5026",
        "employeesCount": 1
      },
      {
        "_id": "554b9eae4218b7090074dd88",
        "address": {
          "complete": "Fountain Valley, CA 92728 US",
          "country": "US",
          "state": "CA",
          "city": "Fountain Valley",
          "zip": "92728"
        },
        "location": {
          "lat": 33.7132105,
          "lon": -117.9284559
        },
        "name": "Fountain Valley",
        "companyId": "5522199bdf102a0900215cac",
        "phone": "",
        "fax": "+1 714-530-5026",
        "employeesCount": 1
      }
    ],
    "phone": "",
    "Fax": "+1 714-530-5026"
  },
  {
    "CompanyName": "A A A Electric Co.",
    "EmployeeCount": 2,
    "Locations": [
      {
        "_id": "56cf4d8de5520d0a002dc965",
        "address": {
          "zip": "94109",
          "country": "US",
          "state": "CA",
          "streetName": "California Street",
          "streetNumber": "1408",
          "city": "San Francisco",
          "complete": "1408 California St #505, San Francisco, CA 94109, USA"
        },
        "location": {
          "lat": 37.7911849,
          "lon": -122.4177921
        },
        "name": "San Francisco",
        "companyId": "56cf4d8de5520d0a002dc964",
        "phone": "",
        "fax": "+1 415-776-7037",
        "employeesCount": 1
      },
      {
        "_id": "6044515329e6c700c9062364",
        "address": {
          "country": "US",
          "suite": "oi",
          "state": "AS",
          "city": "",
          "zip": "64656556",
          "streetName": "oi",
          "complete": "oi"
        },
        "location": {},
        "name": "\"><script>alert('XSS')</script>",
        "companyId": "56cf4d8de5520d0a002dc964",
        "phone": "",
        "fax": "",
        "employeesCount": 1
      }
    ],
    "phone": "",
    "Fax": "+1 415-776-7037"
  },
  {
    "CompanyName": "A A A Electric & Elevator",
    "EmployeeCount": 2,
    "Locations": [
      {
        "_id": "5b219193b58ca100261435f8",
        "address": {
          "complete": "20750 Lassen St, Chatsworth, CA 91311, USA",
          "city": "Chatsworth",
          "streetNumber": "20750",
          "streetName": "Lassen Street",
          "state": "CA",
          "country": "US",
          "zip": "91311"
        },
        "location": {
          "lat": 34.2493748,
          "lon": -118.5861184
        },
        "name": "Chatsworth",
        "companyId": "5b219193b58ca100261435f7",
        "phone": "",
        "fax": "",
        "employeesCount": 2
      }
    ],
    "phone": "",
    "Fax": ""
  },
  {
    "CompanyName": "A&A Painting",
    "EmployeeCount": 3,
    "Locations": [
      {
        "_id": "55271cbe65eea0090005a365",
        "address": {
          "complete": "344 Salinas Street, Salinas, CA 93901 US",
          "zip": "93901",
          "country": "US",
          "state": "CA",
          "city": "Salinas",
          "streetName": "Salinas Street",
          "streetNumber": "344"
        },
        "location": {
          "lat": 36.672162,
          "lon": -121.6559775
        },
        "name": "Salinas",
        "companyId": "54eac86bfbc3cf1b00e82248",
        "phone": "",
        "fax": "+1 831-757-2878",
        "employeesCount": 3
      }
    ],
    "phone": "",
    "Fax": "+1 831-757-2878"
  },
  {
    "CompanyName": "A & A Signs",
    "EmployeeCount": 1,
    "Locations": [
      {
        "_id": "54c092f5448a73060020d44c",
        "address": {
          "complete": "11903 Starcrest Drive, San Antonio, TX 78247 US",
          "zip": "78247",
          "country": "US",
          "state": "TX",
          "city": "San Antonio",
          "streetName": "Starcrest Drive",
          "streetNumber": "11903"
        },
        "location": {
          "lat": 29.5502465,
          "lon": -98.4647174
        },
        "name": "San Antonio",
        "companyId": "54c092f5448a73060020d44b",
        "phone": "",
        "fax": "+1 210-826-6117",
        "employeesCount": 1
      }
    ],
    "phone": "",
    "Fax": "+1 210-826-6117"
  },
  {
    "CompanyName": "A&A Glass",
    "EmployeeCount": 2,
    "Locations": [
      {
        "_id": "54a098415dbabe06007b8c4e",
        "address": {
          "complete": "2300 Dallas Street, Aurora, CO 80010 US",
          "zip": "80010",
          "country": "US",
          "state": "CO",
          "city": "Aurora",
          "streetName": "Dallas Street",
          "streetNumber": "2300"
        },
        "location": {
          "lat": 39.7512929,
          "lon": -104.8760549
        },
        "name": "Aurora",
        "companyId": "54a098415dbabe06007b8c4d",
        "phone": "",
        "fax": "+1 303-364-7452",
        "employeesCount": 2
      }
    ],
    "phone": "",
    "Fax": "+1 303-364-7452"
  },
  {
    "CompanyName": "A A Treybush",
    "EmployeeCount": 1,
    "Locations": [
      {
        "_id": "54ef6f1e9648270800f42a48",
        "address": {
          "complete": "18375 Ventura Boulevard, Los Angeles, CA 91356 US",
          "zip": "91356",
          "country": "US",
          "state": "CA",
          "city": "Los Angeles",
          "streetName": "Ventura Boulevard",
          "streetNumber": "18375"
        },
        "location": {
          "lat": 34.1690249,
          "lon": -118.533367
        },
        "name": "Los Angeles",
        "companyId": "54ef6f1e9648270800f42a47",
        "phone": "",
        "fax": "+1 818-776-1446",
        "employeesCount": 1
      }
    ],
    "phone": "",
    "Fax": "+1 818-776-1446"
  },
  {
    "CompanyName": "A A Insulation",
    "EmployeeCount": 1,
    "Locations": [
      {
        "_id": "554c554027d7fa0900ce2755",
        "address": {
          "complete": "Redding, CA US",
          "country": "US",
          "state": "CA",
          "city": "Redding"
        },
        "location": {
          "lat": 40.5865396,
          "lon": -122.3916754
        },
        "name": "Redding",
        "companyId": "554c553f27d7fa0900ce2754",
        "phone": "",
        "fax": "+1 530-472-1409",
        "employeesCount": 0
      },
      {
        "_id": "57ff481ea986fd0a009575e6",
        "address": {
          "complete": "Millville, CA 96062, USA",
          "zip": "96062",
          "city": "Millville",
          "state": "CA",
          "country": "US"
        },
        "location": {
          "lat": 40.5643302,
          "lon": -122.03977370000001
        },
        "name": "Millville",
        "companyId": "554c553f27d7fa0900ce2754",
        "phone": "",
        "fax": "",
        "employeesCount": 1
      }
    ],
    "phone": "",
    "Fax": "+1 530-472-1409"
  },
  {
    "CompanyName": "A-A Exteriors",
    "EmployeeCount": 1,
    "Locations": [
      {
        "_id": "555df15440fbd20a00dc2254",
        "address": {
          "complete": "N2575 Orchard Way, Waupaca, WI 54981 US",
          "zip": "54981",
          "country": "US",
          "state": "WI",
          "city": "Waupaca",
          "streetName": "Orchard Way",
          "streetNumber": "N2575"
        },
        "location": {
          "lat": 44.33334300000001,
          "lon": -89.052897
        },
        "name": "Waupaca",
        "companyId": "555df15440fbd20a00dc2253",
        "phone": "",
        "fax": "",
        "employeesCount": 1
      }
    ],
    "phone": "",
    "Fax": ""
  },
  {
    "CompanyName": "A & A Painting",
    "EmployeeCount": 2,
    "Locations": [
      {
        "_id": "56099d8a3e6e520700d20210",
        "address": {
          "zip": "32822",
          "country": "US",
          "state": "FL",
          "streetName": "South Semoran Boulevard",
          "streetNumber": "3936",
          "city": "Orlando",
          "complete": "3936 S Semoran Blvd, Orlando, FL 32822, USA"
        },
        "location": {
          "lat": 28.5037238,
          "lon": -81.3127627
        },
        "name": "Orlando",
        "companyId": "56099d8a3e6e520700d2020f",
        "phone": "",
        "fax": "+1 407-381-8250",
        "employeesCount": 0
      },
      {
        "_id": "583edbc98905cb1000b32410",
        "address": {
          "complete": "#580, Orlando, FL 32837, USA",
          "suite": "#580",
          "zip": "32837",
          "city": "Orlando",
          "state": "FL",
          "country": "US"
        },
        "location": {
          "lat": 28.3675319,
          "lon": -81.41690929999999
        },
        "name": "Orlando",
        "companyId": "56099d8a3e6e520700d2020f",
        "phone": "",
        "fax": "",
        "employeesCount": 1
      },
      {
        "_id": "5e4ca078e7cdeb003ff38081",
        "address": {
          "streetNumber": "3956",
          "streetName": "Town Center Boulevard",
          "city": "Orlando",
          "state": "FL",
          "country": "US",
          "zip": "32837",
          "complete": "3956 Town Center Blvd, 580, Orlando, FL 32837, USA",
          "suite": "580"
        },
        "location": {
          "lat": 28.3624162,
          "lon": -81.4282856
        },
        "name": "Orlando",
        "companyId": "56099d8a3e6e520700d2020f",
        "phone": "",
        "fax": "",
        "employeesCount": 1
      }
    ],
    "phone": "",
    "Fax": "+1 407-381-8250"
  },
  {
    "CompanyName": "A & A Plumbing",
    "EmployeeCount": 1,
    "Locations": [
      {
        "_id": "5600408dc9a4150800ea2abb",
        "address": {
          "country": "US",
          "state": "OH",
          "zip": "45365",
          "city": "Sidney",
          "complete": "Sidney, OH 45365, USA"
        },
        "location": {
          "lat": 40.2864247,
          "lon": -84.1686464
        },
        "name": "Sidney",
        "companyId": "5600408dc9a4150800ea2aba",
        "phone": "",
        "fax": "",
        "employeesCount": 1
      }
    ],
    "phone": "",
    "Fax": ""
  },
  {
    "CompanyName": "A&A Masonry",
    "EmployeeCount": 3,
    "Locations": [
      {
        "_id": "55887a92376a880800ce7f9d",
        "address": {
          "complete": "220 Mill Street, , Pittsburg, TX 75686 US",
          "zip": "75686",
          "country": "US",
          "state": "TX",
          "city": "Pittsburg",
          "streetName": "Mill Street",
          "streetNumber": "220"
        },
        "location": {
          "lat": 32.9927854,
          "lon": -94.9705293
        },
        "name": "Pittsburg",
        "companyId": "55887a92376a880800ce7f9c",
        "phone": "",
        "fax": "",
        "employeesCount": 3
      }
    ],
    "phone": "",
    "Fax": ""
  },
  {
    "CompanyName": "Aa",
    "EmployeeCount": 1,
    "Locations": [
      {
        "_id": "5dd4043d346ff4001c72cfa3",
        "address": {
          "complete": "Lavaltrie, QC J5T 3R2, Canada",
          "zip": "J5T 3R2",
          "city": "Lavaltrie",
          "state": "QC",
          "country": "CA"
        },
        "location": {
          "lat": 45.9284541,
          "lon": -73.3318814
        },
        "name": "Lavaltrie",
        "companyId": "5dd4043d346ff4001c72cfa2",
        "phone": "",
        "fax": "+1 450-668-6696",
        "employeesCount": 1
      }
    ],
    "phone": "",
    "Fax": "+1 450-668-6696"
  },
  {
    "CompanyName": "Aa",
    "EmployeeCount": 3,
    "Locations": [
      {
        "_id": "5b2be4bdcba333000f2bd3b3",
        "address": {
          "complete": "Hayward, a, CA 94544, USA",
          "suite": "a",
          "city": "Hayward",
          "state": "CA",
          "country": "US",
          "zip": "94544"
        },
        "location": {
          "lat": 37.6268948,
          "lon": -122.04950639999998
        },
        "name": "Hayward",
        "companyId": "5b2be4bdcba333000f2bd3b2",
        "phone": "",
        "fax": "",
        "employeesCount": 3
      }
    ],
    "phone": "",
    "Fax": ""
  },
  {
    "CompanyName": "Aa",
    "EmployeeCount": 1,
    "Locations": [
      {
        "_id": "60f6c62ee3f11a00a1865a95",
        "address": {
          "country": "US",
          "complete": "United States of America"
        },
        "location": {
          "lat": 37.09024,
          "lon": -95.712891
        },
        "name": "United States of America",
        "companyId": "60f6c62ee3f11a00a1865a94",
        "phone": "",
        "fax": "",
        "employeesCount": 1
      }
    ],
    "phone": "",
    "Fax": ""
  },
  {
    "CompanyName": "AA",
    "EmployeeCount": 1,
    "Locations": [
      {
        "_id": "610185d607793000bc1275db",
        "address": {
          "country": "US",
          "complete": "United States of America"
        },
        "location": {
          "lat": 37.09024,
          "lon": -95.712891
        },
        "name": "United States of America",
        "companyId": "610185d607793000bc1275da",
        "phone": "",
        "fax": "",
        "employeesCount": 1
      }
    ],
    "phone": "",
    "Fax": ""
  },
  {
    "CompanyName": "AA+",
    "EmployeeCount": 1,
    "Locations": [
      {
        "_id": "64dd498ef113b5004218f6be",
        "address": {
          "streetNumber": "22",
          "streetName": "Taylor Park Loop",
          "city": "Little Rock",
          "state": "AR",
          "country": "US",
          "zip": "72211",
          "complete": "22 Taylor Park Loop, Little Rock, AR 72211, United States of America"
        },
        "location": {
          "lat": 34.7429553,
          "lon": -92.4244052
        },
        "name": "Little Rock",
        "companyId": "64dd498ef113b5004218f6bb",
        "phone": "",
        "fax": "",
        "employeesCount": 1
      }
    ],
    "phone": "",
    "Fax": ""
  },
  {
    "CompanyName": "AA",
    "EmployeeCount": 1,
    "Locations": [
      {
        "_id": "6564cb0af09b1322f4bd8402",
        "address": {
          "country": "US",
          "state": "TN",
          "city": "Nashville",
          "zip": "37217",
          "complete": "Nashville, TN 37217, United States of America"
        },
        "location": {
          "lat": 36.0964827,
          "lon": -86.63087589999999
        },
        "name": "Nashville",
        "companyId": "6564cb0af09b1322f4bd83f1",
        "phone": "",
        "fax": "",
        "employeesCount": 1
      }
    ],
    "phone": "",
    "Fax": ""
  },
  {
    "CompanyName": "AA&AA Partition Inc",
    "EmployeeCount": 1,
    "Locations": [
      {
        "_id": "6835224945f25d236c74b3df",
        "address": {
          "city": "Sacramento",
          "complete": "Sacramento, CA 9582, United States of America",
          "country": "US",
          "state": "CA",
          "zip": "9582"
        },
        "location": {
          "lat": 38.5781342,
          "lon": -121.4944209
        },
        "name": "Sacramento",
        "companyId": "6835224945f25d236c74b3db",
        "phone": "+1 916-813-4177",
        "fax": "",
        "employeesCount": 1
      }
    ],
    "phone": "+1 916-813-4177",
    "Fax": ""
  },
  {
    "CompanyName": "AA Construction",
    "EmployeeCount": 2,
    "Locations": [
      {
        "_id": "5772c8eab44c310f002fcff8",
        "address": {
          "complete": "1910 Homewood Dr, Rockford, IL 61108, USA",
          "city": "Rockford",
          "streetNumber": "1910",
          "streetName": "Homewood Drive",
          "state": "IL",
          "country": "US",
          "zip": "61108"
        },
        "location": {
          "lat": 42.247851,
          "lon": -89.0081189
        },
        "name": "Rockford",
        "companyId": "5772c8eab44c310f002fcff7",
        "phone": "",
        "fax": "+1 815-366-4252",
        "employeesCount": 2
      }
    ],
    "phone": "",
    "Fax": "+1 815-366-4252"
  },
  {
    "CompanyName": "AA Constuction",
    "EmployeeCount": 9,
    "Locations": [
      {
        "_id": "5575dfaf0f59e808004036b0",
        "address": {
          "complete": "418 Juliustown Pemberton Road, , Wrightstown, NJ 08562 US",
          "zip": "08562",
          "country": "US",
          "state": "NJ",
          "city": "Wrightstown",
          "streetName": "Juliustown Pemberton Road",
          "streetNumber": "418"
        },
        "location": {
          "lat": 40.0122,
          "lon": -74.6673
        },
        "name": "Wrightstown",
        "companyId": "5575dfaf0f59e808004036af",
        "phone": "",
        "fax": "+1 732-969-1400",
        "employeesCount": 1
      },
      {
        "_id": "55e605bb4ecdbb0900645b2f",
        "address": {
          "complete": "427 Whitehead Avenue, South River, NJ 08882, USA",
          "streetNumber": "427",
          "streetName": "Whitehead Avenue",
          "city": "South River",
          "state": "NJ",
          "country": "US",
          "zip": "08882"
        },
        "location": {
          "lat": 40.4340245,
          "lon": -74.36233370000002
        },
        "name": "South River",
        "companyId": "5575dfaf0f59e808004036af",
        "phone": "",
        "fax": "+1 732-613-5702",
        "employeesCount": 8
      }
    ],
    "phone": "",
    "Fax": "+1 732-969-1400"
  },
  {
    "CompanyName": "AA Tronics",
    "EmployeeCount": 4,
    "Locations": [
      {
        "_id": "552b4c46a8544108005b186a",
        "address": {
          "complete": "10 North Liberty Street, Boise, ID 83704 US",
          "zip": "83704",
          "country": "US",
          "state": "ID",
          "city": "Boise",
          "streetName": "North Liberty Street",
          "streetNumber": "10"
        },
        "location": {
          "lat": 43.6047359,
          "lon": -116.2605602
        },
        "name": "Boise",
        "companyId": "552b4c46a8544108005b1869",
        "phone": "",
        "fax": "+1 208-344-9087",
        "employeesCount": 4
      }
    ],
    "phone": "",
    "Fax": "+1 208-344-9087"
  },
  {
    "CompanyName": "AA Flooring",
    "EmployeeCount": 4,
    "Locations": [
      {
        "_id": "5430e81a5cdc2e0300dde849",
        "address": {
          "zip": "91311",
          "streetNumber": "9620",
          "streetName": "Topanga Canyon Place",
          "state": "CA",
          "country": "US",
          "complete": "9620 Topanga Canyon Place, Chatsworth, CA 91311, USA",
          "city": "Chatsworth"
        },
        "location": {
          "lat": 34.2451658,
          "lon": -118.6049909
        },
        "name": "Chatsworth",
        "companyId": "5430e81a5cdc2e0300dde848",
        "phone": "",
        "fax": "+1 818-775-0335",
        "employeesCount": 4
      }
    ],
    "phone": "",
    "Fax": "+1 818-775-0335"
  },
  {
    "CompanyName": "Aa-Demolition",
    "EmployeeCount": 1,
    "Locations": [
      {
        "_id": "560040f7c9a4150800ea33e5",
        "address": {
          "zip": "41091",
          "country": "US",
          "state": "KY",
          "streetName": "Indian Hill Drive",
          "streetNumber": "10106",
          "city": "Union",
          "complete": "10106 Indian Hill Dr, Union, KY 41091, USA"
        },
        "location": {
          "lat": 38.943271,
          "lon": -84.668593
        },
        "name": "Union",
        "companyId": "560040f7c9a4150800ea33e4",
        "phone": "",
        "fax": "",
        "employeesCount": 1
      }
    ],
    "phone": "",
    "Fax": ""
  },
  {
    "CompanyName": "AA Plumbing",
    "EmployeeCount": 1,
    "Locations": [
      {
        "_id": "55fda5e80ddcef0a003b0c2c",
        "address": {
          "country": "US",
          "state": "CO",
          "city": "Longmont",
          "complete": "Longmont, CO, USA"
        },
        "location": {
          "lat": 40.1672068,
          "lon": -105.1019275
        },
        "name": "Longmont",
        "companyId": "55fda5e80ddcef0a003b0c2b",
        "phone": "",
        "fax": "",
        "employeesCount": 1
      }
    ],
    "phone": "",
    "Fax": ""
  },
  {
    "CompanyName": "AA Striping",
    "EmployeeCount": 1,
    "Locations": [
      {
        "_id": "564620a5b013290a00f693b0",
        "address": {
          "country": "US",
          "state": "CO",
          "city": "Colorado Springs",
          "complete": "Colorado Springs, CO, USA"
        },
        "location": {
          "lat": 38.8338816,
          "lon": -104.8213634
        },
        "name": "Colorado Springs",
        "companyId": "564620a5b013290a00f693af",
        "phone": "",
        "fax": "+1 719-226-0250",
        "employeesCount": 1
      }
    ],
    "phone": "",
    "Fax": "+1 719-226-0250"
  },
  {
    "CompanyName": "AA Services",
    "EmployeeCount": 2,
    "Locations": [
      {
        "_id": "562ee5ec960dc20a002dcc7c",
        "address": {
          "complete": "64 Rutledge Rd, Lumberton, MS 39455, USA",
          "streetNumber": "64",
          "streetName": "Rutledge Road",
          "city": "Lumberton",
          "state": "MS",
          "country": "US",
          "zip": "39455"
        },
        "location": {
          "lat": 31.06536,
          "lon": -89.41692499999999
        },
        "name": "Lumberton",
        "companyId": "562ee5ec960dc20a002dcc7b",
        "phone": "",
        "fax": "",
        "employeesCount": 1
      },
      {
        "_id": "62224ca6ed1aa200b97def12",
        "address": {
          "country": "US",
          "suite": "",
          "complete": "United States of America"
        },
        "location": {
          "lat": 37.09024,
          "lon": -95.712891
        },
        "name": "United States of America",
        "companyId": "562ee5ec960dc20a002dcc7b",
        "phone": "",
        "fax": "",
        "employeesCount": 1
      }
    ],
    "phone": "",
    "Fax": ""
  },
  {
    "CompanyName": "AA Development",
    "EmployeeCount": 1,
    "Locations": [
      {
        "_id": "56a29974d0dc6c0b00079132",
        "address": {
          "zip": "85260",
          "country": "US",
          "state": "AZ",
          "streetName": "East Bell Road",
          "streetNumber": "9375",
          "city": "Scottsdale",
          "complete": "9375 E Bell Rd, Scottsdale, AZ 85260, USA"
        },
        "location": {
          "lat": 33.638815,
          "lon": -111.8820824
        },
        "name": "Scottsdale",
        "companyId": "56a29974d0dc6c0b00079131",
        "phone": "",
        "fax": "",
        "employeesCount": 0
      },
      {
        "_id": "56dedcba3eadaf0f0005eae4",
        "address": {
          "complete": "4433 E Evans Dr, Phoenix, AZ 85032, USA",
          "streetNumber": "4433",
          "streetName": "East Evans Drive",
          "city": "Phoenix",
          "state": "AZ",
          "country": "US",
          "zip": "85032"
        },
        "location": {
          "lat": 33.617941,
          "lon": -111.98509999999999
        },
        "name": "Phoenix",
        "companyId": "56a29974d0dc6c0b00079131",
        "phone": "",
        "fax": "",
        "employeesCount": 1
      }
    ],
    "phone": "",
    "Fax": ""
  },
  {
    "CompanyName": "AA Plumbing",
    "EmployeeCount": 3,
    "Locations": [
      {
        "_id": "56fd9b1e0dd8980a00ec00e4",
        "address": {
          "complete": "3259 Homeward Way, Fairfield, OH 45014, USA",
          "streetNumber": "3259",
          "streetName": "Homeward Way",
          "city": "Fairfield",
          "state": "OH",
          "country": "US",
          "zip": "45014"
        },
        "location": {
          "lat": 39.333727,
          "lon": -84.51098200000001
        },
        "name": "Fairfield",
        "companyId": "56fd9b1e0dd8980a00ec00e3",
        "phone": "",
        "fax": "",
        "employeesCount": 3
      }
    ],
    "phone": "",
    "Fax": ""
  },
  {
    "CompanyName": "AA Gonzales",
    "EmployeeCount": 4,
    "Locations": [
      {
        "_id": "570ecc8d49c7650f0068b65c",
        "address": {
          "zip": "91342",
          "country": "US",
          "state": "CA",
          "streetName": "Ralston Avenue",
          "streetNumber": "13264",
          "city": "Sylmar",
          "complete": "13264 Ralston Ave, Sylmar, CA 91342, USA"
        },
        "location": {
          "lat": 34.312978,
          "lon": -118.472142
        },
        "name": "Sylmar",
        "companyId": "570ecc8d49c7650f0068b65b",
        "phone": "",
        "fax": "",
        "employeesCount": 3
      },
      {
        "_id": "5bc136ea1922b90011a0f211",
        "address": {
          "complete": "Sylmar, Los Angeles, CA, USA",
          "city": "Los Angeles",
          "state": "CA",
          "country": "US"
        },
        "location": {
          "lat": 34.3058279,
          "lon": -118.4571974
        },
        "name": "Los Angeles",
        "companyId": "570ecc8d49c7650f0068b65b",
        "phone": "",
        "fax": "+1 818-364-8760",
        "employeesCount": 1
      }
    ],
    "phone": "",
    "Fax": ""
  },
  {
    "CompanyName": "AA Electric",
    "EmployeeCount": 7,
    "Locations": [
      {
        "_id": "54da5798a00cc80800cc64a4",
        "address": {
          "complete": "10618 Red Pine Court, Charlotte, NC 28262 US",
          "zip": "28262",
          "country": "US",
          "state": "NC",
          "city": "Charlotte",
          "streetName": "Red Pine Court",
          "streetNumber": "10618"
        },
        "location": {
          "lat": 35.340946,
          "lon": -80.75708
        },
        "name": "Charlotte",
        "companyId": "54da5787a00cc80800cc623c",
        "phone": "",
        "fax": "+1 704-971-4267",
        "employeesCount": 1
      },
      {
        "_id": "54da5787a00cc80800cc623d",
        "address": {
          "complete": "Kannapolis, NC 28083 US",
          "country": "US",
          "state": "NC",
          "city": "Kannapolis",
          "zip": "28083"
        },
        "location": {
          "lat": 35.4919675,
          "lon": -80.5771737
        },
        "name": "Kannapolis",
        "companyId": "54da5787a00cc80800cc623c",
        "phone": "",
        "fax": "+1 704-933-8720",
        "employeesCount": 2
      },
      {
        "_id": "54dad8d01794ef060041a408",
        "address": {
          "complete": "20743 Austin Road, Albemarle, NC 28001 US",
          "zip": "28001",
          "country": "US",
          "state": "NC",
          "city": "Albemarle",
          "streetName": "Austin Road",
          "streetNumber": "20743"
        },
        "location": {
          "lat": 35.308739,
          "lon": -80.318428
        },
        "name": "Albemarle",
        "companyId": "54da5787a00cc80800cc623c",
        "phone": "",
        "fax": "+1 704-982-5755",
        "employeesCount": 1
      },
      {
        "_id": "54da5797a00cc80800cc6495",
        "address": {
          "complete": "180 Spring Oak Drive, Salisbury, NC 28147 US",
          "zip": "28147",
          "country": "US",
          "state": "NC",
          "city": "Salisbury",
          "streetName": "Spring Oak Drive",
          "streetNumber": "180"
        },
        "location": {
          "lat": 35.605091,
          "lon": -80.55487699999999
        },
        "name": "Salisbury",
        "companyId": "54da5787a00cc80800cc623c",
        "phone": "",
        "fax": "+1 704-855-2647",
        "employeesCount": 0
      },
      {
        "_id": "54da57eaa00cc80800cc6fc9",
        "address": {
          "complete": "8333 Poplar Tent Road, Concord, NC 28027 US",
          "zip": "28027",
          "country": "US",
          "state": "NC",
          "city": "Concord",
          "streetName": "Poplar Tent Road",
          "streetNumber": "8333"
        },
        "location": {
          "lat": 35.409357,
          "lon": -80.71703099999999
        },
        "name": "Concord",
        "companyId": "54da5787a00cc80800cc623c",
        "phone": "",
        "fax": "+1 704-782-6440",
        "employeesCount": 2
      },
      {
        "_id": "54da57c2a00cc80800cc6a3f",
        "address": {
          "complete": "Rockwell, NC 28138 US",
          "zip": "28138",
          "country": "US",
          "state": "NC",
          "city": "Rockwell"
        },
        "location": {
          "lat": 35.5512508,
          "lon": -80.4064485
        },
        "name": "Rockwell",
        "companyId": "54da5787a00cc80800cc623c",
        "phone": "",
        "fax": "+1 704-782-7133",
        "employeesCount": 0
      },
      {
        "_id": "54daa8702caed20600c99cc2",
        "address": {
          "complete": "138 North Highway 49, Richfield, NC 28137 US",
          "zip": "28137",
          "country": "US",
          "state": "NC",
          "city": "Richfield",
          "streetName": "North Highway 49",
          "streetNumber": "138"
        },
        "location": {
          "lat": 35.4716905,
          "lon": -80.26697399999999
        },
        "name": "Richfield",
        "companyId": "54da5787a00cc80800cc623c",
        "phone": "",
        "fax": "+1 704-463-4596",
        "employeesCount": 1
      },
      {
        "_id": "54daa8612caed20600c99ad3",
        "address": {
          "complete": "607 Frontier Circle, China Grove, NC 28023 US",
          "zip": "28023",
          "country": "US",
          "state": "NC",
          "city": "China Grove",
          "streetName": "Frontier Circle",
          "streetNumber": "607"
        },
        "location": {
          "lat": 35.569389,
          "lon": -80.541479
        },
        "name": "China Grove",
        "companyId": "54da5787a00cc80800cc623c",
        "phone": "",
        "fax": "+1 877-350-6128",
        "employeesCount": 0
      }
    ],
    "phone": "",
    "Fax": "+1 704-971-4267"
  },
  {
    "CompanyName": "AA Insulation",
    "EmployeeCount": 1,
    "Locations": [
      {
        "_id": "587e2a46b4212d0b00935147",
        "address": {
          "complete": "Ashland, OR 97520, USA",
          "city": "Ashland",
          "state": "OR",
          "country": "US",
          "zip": "97520"
        },
        "location": {
          "lat": 42.1945758,
          "lon": -122.7094767
        },
        "name": "Ashland",
        "companyId": "587e2a46b4212d0b00935146",
        "phone": "",
        "fax": "+1 541-535-1575",
        "employeesCount": 1
      }
    ],
    "phone": "",
    "Fax": "+1 541-535-1575"
  }
]